<cdidata>
  <cdi w="68.03335" e="80.05005" n="43.89165" utm_span="10000" zone="43S" type="geo" s="34.57495">
    <location name="UTM:(42S 048 427 10000)">
      <city>Dushanbe</city>
      <cdi>2</cdi>
      <nresp>2</nresp>
      <dist>457</dist>
      <lat>38.6234</lat>
      <lon>68.8277</lon>
      <name>UTM:(42S 048 427 10000)</name>
    </location>
    <location name="UTM:(42S 072 415 10000)">
      <city>Khorug</city>
      <cdi>2.8973</cdi>
      <nresp>2</nresp>
      <dist>290</dist>
      <lat>37.5145</lat>
      <lon>71.5459</lon>
      <name>UTM:(42S 072 415 10000)</name>
    </location>
    <location name="UTM:(42T 051 456 10000)">
      <city>Tashkent</city>
      <cdi>4.0696</cdi>
      <nresp>1</nresp>
      <dist>470</dist>
      <lat>41.2362</lat>
      <lon>69.1790</lon>
      <name>UTM:(42T 051 456 10000)</name>
    </location>
    <location name="UTM:(42T 052 457 10000)">
      <city>Tashkent</city>
      <cdi>2.9841</cdi>
      <nresp>5</nresp>
      <dist>465</dist>
      <lat>41.3261</lat>
      <lon>69.2987</lon>
      <name>UTM:(42T 052 457 10000)</name>
    </location>
    <location name="UTM:(43R 058 278 10000)">
      <city>Kota</city>
      <cdi>2.5168</cdi>
      <nresp>1</nresp>
      <dist>1568</dist>
      <lat>25.1787</lat>
      <lon>75.8435</lon>
      <name>UTM:(43R 058 278 10000)</name>
    </location>
    <location name="UTM:(43R 069 314 10000)">
      <city>Gurgaon</city>
      <cdi>3.9543</cdi>
      <nresp>1</nresp>
      <dist>1230</dist>
      <lat>28.4169</lat>
      <lon>76.9907</lon>
      <name>UTM:(43R 069 314 10000)</name>
    </location>
    <location name="UTM:(43S 029 388 10000)">
      <city>Mingaora</city>
      <cdi>2</cdi>
      <nresp>1</nresp>
      <dist>474</dist>
      <lat>35.0870</lat>
      <lon>72.7513</lon>
      <name>UTM:(43S 029 388 10000)</name>
    </location>
    <location name="UTM:(43S 031 373 10000)">
      <city>Islamabad</city>
      <cdi>2</cdi>
      <nresp>1</nresp>
      <dist>617</dist>
      <lat>33.7390</lat>
      <lon>73.0030</lon>
      <name>UTM:(43S 031 373 10000)</name>
    </location>
    <location name="UTM:(43S 032 372 10000)">
      <city>Rawalpindi</city>
      <cdi>2</cdi>
      <nresp>1</nresp>
      <dist>625</dist>
      <lat>33.6505</lat>
      <lon>73.1129</lon>
      <name>UTM:(43S 032 372 10000)</name>
    </location>
    <location name="UTM:(43S 037 431 10000)">
      <city>Murgob</city>
      <cdi>7.5086</cdi>
      <nresp>1</nresp>
      <dist>52</dist>
      <lat>38.9750</lat>
      <lon>73.5570</lon>
      <name>UTM:(43S 037 431 10000)</name>
    </location>
    <location name="UTM:(43S 040 422 10000)">
      <city>Murgob</city>
      <cdi>6.8888</cdi>
      <nresp>1</nresp>
      <dist>119</dist>
      <lat>38.1679</lat>
      <lon>73.9155</lon>
      <name>UTM:(43S 040 422 10000)</name>
    </location>
    <location name="UTM:(43S 041 422 10000)">
      <city>Murgob</city>
      <cdi>3.4498</cdi>
      <nresp>1</nresp>
      <dist>119</dist>
      <lat>38.1689</lat>
      <lon>74.0297</lon>
      <name>UTM:(43S 041 422 10000)</name>
    </location>
    <location name="UTM:(43S 044 431 10000)">
      <city>Murgob</city>
      <cdi>8.3285</cdi>
      <nresp>1</nresp>
      <dist>41</dist>
      <lat>38.9823</lat>
      <lon>74.3650</lon>
      <name>UTM:(43S 044 431 10000)</name>
    </location>
    <location name="UTM:(43T 031 448 10000)">
      <city>Oş</city>
      <cdi>4.2978</cdi>
      <nresp>3</nresp>
      <dist>175</dist>
      <lat>40.4951</lat>
      <lon>72.8170</lon>
      <name>UTM:(43T 031 448 10000)</name>
    </location>
    <location name="UTM:(43T 046 474 10000)">
      <city>Bişkek</city>
      <cdi>2.3330</cdi>
      <nresp>3</nresp>
      <dist>404</dist>
      <lat>42.8568</lat>
      <lon>74.5716</lon>
      <name>UTM:(43T 046 474 10000)</name>
    </location>
    <location name="UTM:(43T 065 478 10000)">
      <city>Almaty</city>
      <cdi>2.6912</cdi>
      <nresp>1</nresp>
      <dist>501</dist>
      <lat>43.2019</lat>
      <lon>76.9079</lon>
      <name>UTM:(43T 065 478 10000)</name>
    </location>
  </cdi>
</cdidata>
